{
  "type": "FeatureCollection",
  "features": [
    {
      "type": "Feature",
      "geometry": {
        "type": "Point",
        "coordinates": [
          2.347,
          48.859
        ]
      },
      "properties": {
        "label": "Paris",
        "score": 0.7306278512396694,
        "id": "75056",
        "type": "municipality",
        "name": "Paris",
        "postcode": "75001",
        "citycode": "75056",
        "x": 652089.7,
        "y": 6862305.26,
        "population": 2113705,
        "city": "Paris",
        "context": "75, Paris, Île-de-France",
        "importance": 0.67327,
        "municipality": "Paris",
        "_type": "address"
      }
    },
    {
      "type": "Feature",
      "geometry": {
        "type": "Point",
        "coordinates": [
          2.375142,
          48.858606
        ]
      },
      "properties": {
        "label": "Villa Marcès 75011 Paris",
        "score": 0.41974395256916996,
        "id": "75111_6014",
        "name": "Villa Marcès",
        "postcode": "75011",
        "citycode": "75111",
        "x": 654154.07,
        "y": 6862244.74,
        "city": "Paris",
        "district": "Paris 11e Arrondissement",
        "context": "75, Paris, Île-de-France",
        "type": "street",
        "importance": 0.70414,
        "street": "Villa Marcès",
        "_type": "address"
      }
    },
    {
      "type": "Feature",
      "geometry": {
        "type": "Point",
        "coordinates": [
          2.386405,
          48.851742
        ]
      },
      "properties": {
        "label": "Rue Titon 75011 Paris",
        "score": 0.41554480519480513,
        "id": "75111_9326",
        "name": "Rue Titon",
        "postcode": "75011",
        "citycode": "75111",
        "x": 654974.49,
        "y": 6861475.05,
        "city": "Paris",
        "district": "Paris 11e Arrondissement",
        "context": "75, Paris, Île-de-France",
        "type": "street",
        "importance": 0.71385,
        "street": "Rue Titon",
        "_type": "address"
      }
    },
    {
      "type": "Feature",
      "geometry": {
        "type": "Point",
        "coordinates": [
          2.37029,
          48.859852
        ]
      },
      "properties": {
        "label": "Rue Pelée 75011 Paris",
        "score": 0.4143257142857142,
        "id": "75111_7222",
        "name": "Rue Pelée",
        "postcode": "75011",
        "citycode": "75111",
        "x": 653799.19,
        "y": 6862386.12,
        "city": "Paris",
        "district": "Paris 11e Arrondissement",
        "context": "75, Paris, Île-de-France",
        "type": "street",
        "importance": 0.70044,
        "street": "Rue Pelée",
        "_type": "address"
      }
    },
    {
      "type": "Feature",
      "geometry": {
        "type": "Point",
        "coordinates": [
          2.367824,
          48.860473
        ]
      },
      "properties": {
        "label": "Rue Amelot 75011 Paris",
        "score": 0.406921652892562,
        "id": "75111_0272",
        "name": "Rue Amelot",
        "postcode": "75011",
        "citycode": "75111",
        "x": 653618.82,
        "y": 6862456.61,
        "city": "Paris",
        "district": "Paris 11e Arrondissement",
        "context": "75, Paris, Île-de-France",
        "type": "street",
        "importance": 0.79432,
        "street": "Rue Amelot",
        "_type": "address"
      }
    },
    {
      "type": "Feature",
      "geometry": {
        "type": "Point",
        "coordinates": [
          2.391371,
          48.852366
        ]
      },
      "properties": {
        "label": "Passage Dumas 75011 Paris",
        "score": 0.4044072727272727,
        "id": "75111_2982",
        "name": "Passage Dumas",
        "postcode": "75011",
        "citycode": "75111",
        "x": 655339.43,
        "y": 6861541.61,
        "city": "Paris",
        "district": "Paris 11e Arrondissement",
        "context": "75, Paris, Île-de-France",
        "type": "street",
        "importance": 0.69848,
        "street": "Passage Dumas",
        "_type": "address"
      }
    },
    {
      "type": "Feature",
      "geometry": {
        "type": "Point",
        "coordinates": [
          2.382721,
          48.861348
        ]
      },
      "properties": {
        "label": "Rue Servan 75011 Paris",
        "score": 0.403141652892562,
        "id": "75111_8941",
        "name": "Rue Servan",
        "postcode": "75011",
        "citycode": "75111",
        "x": 654712.52,
        "y": 6862545.26,
        "city": "Paris",
        "district": "Paris 11e Arrondissement",
        "context": "75, Paris, Île-de-France",
        "type": "street",
        "importance": 0.75274,
        "street": "Rue Servan",
        "_type": "address"
      }
    },
    {
      "type": "Feature",
      "geometry": {
        "type": "Point",
        "coordinates": [
          2.385278,
          48.860773
        ]
      },
      "properties": {
        "label": "Rue Merlin 75011 Paris",
        "score": 0.4015380165289256,
        "id": "75111_6280",
        "name": "Rue Merlin",
        "postcode": "75011",
        "citycode": "75111",
        "x": 654899.61,
        "y": 6862479.86,
        "city": "Paris",
        "district": "Paris 11e Arrondissement",
        "context": "75, Paris, Île-de-France",
        "type": "street",
        "importance": 0.7351,
        "street": "Rue Merlin",
        "_type": "address"
      }
    },
    {
      "type": "Feature",
      "geometry": {
        "type": "Point",
        "coordinates": [
          2.380941,
          48.859445
        ]
      },
      "properties": {
        "label": "Rue Pétion 75011 Paris",
        "score": 0.4015380165289256,
        "id": "75111_7312",
        "name": "Rue Pétion",
        "postcode": "75011",
        "citycode": "75111",
        "x": 654580.27,
        "y": 6862334.68,
        "city": "Paris",
        "district": "Paris 11e Arrondissement",
        "context": "75, Paris, Île-de-France",
        "type": "street",
        "importance": 0.7351,
        "street": "Rue Pétion",
        "_type": "address"
      }
    },
    {
      "type": "Feature",
      "geometry": {
        "type": "Point",
        "coordinates": [
          2.384967,
          48.852727
        ]
      },
      "properties": {
        "label": "Rue Chanzy 75011 Paris",
        "score": 0.4014498347107438,
        "id": "75111_1762",
        "name": "Rue Chanzy",
        "postcode": "75011",
        "citycode": "75111",
        "x": 654869.83,
        "y": 6861585.39,
        "city": "Paris",
        "district": "Paris 11e Arrondissement",
        "context": "75, Paris, Île-de-France",
        "type": "street",
        "importance": 0.73413,
        "street": "Rue Chanzy",
        "_type": "address"
      }
    }
  ],
  "query": "Paris 75011"
}
